today,microseconds_since_start,msl,T_Baro,rc0,rc1,rc2,rc3,rc4,rc5,rc6,rc7,rc0_scaled,rc1_scaled,rc2_scaled,rc3_scaled,rc4_scaled,rc5_scaled,rc6_scaled,rc7_scaled,roll_desired,,roll_cmd,roll_error,roll_error_rate,roll_error_sum,pitch_desired,,pitch_cmd,pitch_error,pitch_error_rate,pitch_error_sum,yaw_rate_desired,yaw_mpu_madgwick,yaw_cmd,yaw_rate_error,yaw_rate_error_rate,yaw_rate_error_sum,a_mpu[0],a_mpu[1],a_mpu[2],g_mpu[0],g_mpu[1],g_mpu[2],m_mpu[0],m_mpu[1],m_mpu[2],m1cmd,m2cmd,m3cmd,m4cmd,throttle,time_gps,lat,lng,msl_gps,horz_accuracy,vert_accuracy,status_gps,prescribed_input1,prescribed_input2,prescribed_input3,prescribed_input4,prescribed_input_index,rpm
Fri Jun 29 20:29:52 2018,40359648,0,0,1513,1509,1088,1510,1088,1940,1514,1514,-0.0469513,-0.234749,1,-0.469482,-0.5,0.5,-260.274,-14622.5,0,,17.0864,0,0,0,0,,-4.5634,0,0,0,0,176.691,0.260392,0,0,0,-0.172383,0.713472,-9.65821,0.00212845,-0.0404405,0.00319267,60.2438,36.0938,18.3844,0.7,1.95,1.95,0.7,0,0,0,0,10000,0,0,0,0.100000001,0.100000001,0.100000001,0.100000001,0,0
Fri Jun 29 20:29:52 2018,40369658,693.376282,29.3894386,1513,1509,1088,1510,1088,1940,1514,1514,-0.046951294,-0.23474884,1.00000012,-0.469482422,-0.500000119,0.5,-339.938324,-14506.5576,0,,17.0767689,0,0,0,0,,-4.60628176,0,0,0,0,176.656845,0.2629852,0,0,0,-0.22505495,0.794874966,-9.58159542,-0.001064224,-0.034055177,0,60.2437515,36.09375,18.3843765,0.699999988,1.95000005,1.95000005,0.699999988,0,0,0,0,10000,0,0,0,0.100000001,0.100000001,0.100000001,0.100000001,0,30
Fri Jun 29 20:29:52 2018,40379710,693.376282,29.3894386,1513,1510,1088,1510,1088,1940,1514,1514,-0.046951294,-0.187797546,1.00000012,-0.469482422,-0.500000119,0.5,-311.150421,-14644.2988,0,,17.0647182,0,0,0,0,,-4.6529603,0,0,0,0,176.626831,0.26285401,0,0,0,-0.20590134,0.584185183,-9.672575,-0.001064224,-0.036183626,0,60.2437515,36.09375,18.3843765,0.699999988,1.95000005,1.95000005,0.699999988,0,0,0,0,10000,0,0,0,0.100000001,0.100000001,0.100000001,0.100000001,0,30
Fri Jun 29 20:29:52 2018,40389815,693.376282,29.3894386,1513,1510,1088,1510,1088,1940,1514,1514,-0.046951294,-0.187797546,1.00000012,-0.469482422,-0.500000119,0.5,-267.446655,-14753.041,0,,17.0521793,0,0,0,0,,-4.7000947,0,0,0,0,176.599075,0.262732685,0,0,0,-0.177170917,0.790086567,-9.74440098,0.002128449,-0.037247852,0,60.2437515,36.09375,18.3843765,0.699999988,1.95000005,1.95000005,0.699999988,0,0,0,0,10000,0,0,0,0.100000001,0.100000001,0.100000001,0.100000001,0,30
Fri Jun 29 20:29:52 2018,40399852,693.376282,29.3894386,1513,1510,1088,1510,1088,1940,1514,1514,-0.046951294,-0.187797546,1.00000012,-0.469482422,-0.500000119,0.5,-325.539612,-14644.2998,0,,17.0402946,0,0,0,0,,-4.74773312,0,0,0,0,176.571625,0.261697799,0,0,0,-0.215478152,0.694318473,-9.672575,0.001064224,-0.037247852,0.001064224,60.2437515,36.09375,18.3843765,0.699999988,1.95000005,1.95000005,0.699999988,0,0,0,0,10000,0,0,0,0.100000001,0.100000001,0.100000001,0.100000001,0,30
Fri Jun 29 20:29:52 2018,40409947,694.879456,29.5408516,1513,1510,1088,1510,1088,1940,1514,1514,-0.046951294,-0.187797546,1.00000012,-0.469482422,-0.500000119,0.5,-260.249695,-14383.3096,0,,17.0276737,0,0,0,0,,-4.79540825,0,0,0,0,176.548523,0.259766996,0,0,0,-0.172382519,0.737414122,-9.50019264,0.002128449,-0.038312074,0.003192673,60.2437515,36.09375,18.3843765,0.699999988,1.95000005,1.95000005,0.699999988,0,0,0,0,10000,0,0,0,0.100000001,0.100000001,0.100000001,0.100000001,0,30
Fri Jun 29 20:29:52 2018,40420017,694.879456,29.5408516,1513,1510,1088,1510,1088,1940,1514,1514,-0.046951294,-0.187797546,1.00000012,-0.469482422,-0.500000119,0.5,-434.207611,-14687.8057,0,,17.0148506,0,0,0,0,,-4.84389877,0,0,0,0,176.534225,0.268853486,0,0,0,-0.287304193,0.770932913,-9.70130539,0,-0.035119399,-0.00744957,60.2437515,36.09375,18.3843765,0.699999988,1.95000005,1.95000005,0.699999988,0,0,0,0,10000,0,0,0,0.100000001,0.100000001,0.100000001,0.100000001,0,30
Fri Jun 29 20:29:52 2018,40430076,694.879456,29.5408516,1513,1510,1088,1510,1088,1940,1514,1514,-0.046951294,-0.187797546,1.00000012,-0.469482422,-0.500000119,0.5,-325.510864,-14593.5527,0,,17.0016193,0,0,0,0,,-4.8928957,0,0,0,0,176.522034,0.257821381,0,0,0,-0.215478152,0.723048925,-9.63905621,-0.002128449,-0.031926729,0.005321121,60.2437515,36.09375,18.3843765,0.699999988,1.95000005,1.95000005,0.699999988,0,0,0,0,10000,0,0,0,0.100000001,0.100000001,0.100000001,0.100000001,0,30
Fri Jun 29 20:29:52 2018,40440152,694.879456,29.5408516,1513,1510,1088,1510,1088,1940,1514,1514,-0.046951294,-0.187797546,1.00000012,-0.469482422,-0.500000119,0.5,-224.035049,-14637.0439,0,,16.988081,0,0,0,0,,-4.9412303,0,0,0,0,176.511932,0.257777214,0,0,0,-0.14844051,0.703895271,-9.6677866,-0.003192673,-0.037247852,0.005321121,60.2437515,36.09375,18.3843765,0.699999988,1.95000005,1.95000005,0.699999988,0,0,0,0,10000,0,0,0,0.100000001,0.100000001,0.100000001,0.100000001,0,30
Fri Jun 29 20:29:52 2018,40450190,694.879456,29.5408516,1513,1510,1088,1510,1088,1940,1514,1514,-0.046951294,-0.187797546,1.00000012,-0.469482422,-0.500000119,0.5,-354.480713,-14528.3076,0,,16.9731941,0,0,0,0,,-4.98966599,0,0,0,0,176.508118,0.265079707,0,0,0,-0.234631762,0.751779318,-9.59596062,0.002128449,-0.0393763,-0.003192673,60.2437515,36.09375,18.3843765,0.699999988,1.95000005,1.95000005,0.699999988,0,0,0,0,10000,0,0,0,0.100000001,0.100000001,0.100000001,0.100000001,0,30
Fri Jun 29 20:29:52 2018,40460210,693.341553,29.5804081,1513,1510,1088,1510,1088,1940,1514,1514,-0.046951294,-0.187797546,1.00000012,-0.469482422,-0.500000119,0.5,-303.771515,-14629.7998,0,,16.959734,0,0,0,0,,-5.03907967,0,0,0,0,176.511307,0.26234898,0,0,0,-0.201112941,0.713472068,-9.6629982,-0.003192673,-0.036183626,0,59.8851585,34.2890625,18.7312508,0.699999988,1.95000005,1.95000005,0.699999988,0,0,0,0,10000,0,0,0,0.100000001,0.100000001,0.100000001,0.100000001,0,30
Fri Jun 29 20:29:52 2018,40470215,693.341553,29.5804081,1513,1510,1088,1510,1088,1940,1514,1514,-0.046951294,-0.187797546,1.00000012,-0.469482422,-0.500000119,0.5,-267.470612,-14593.5488,0,,16.9448013,0,0,0,0,,-5.08793736,0,0,0,0,176.515854,0.263283789,0,0,0,-0.177170917,0.766144514,-9.63905621,0.001064224,-0.037247852,-0.001064224,59.8851585,34.2890625,18.7312508,0.699999988,1.95000005,1.95000005,0.699999988,0,0,0,0,10000,0,0,0,0.100000001,0.100000001,0.100000001,0.100000001,0,30
Fri Jun 29 20:29:52 2018,40480301,693.341553,29.5804081,1513,1510,1088,1510,1088,1940,1514,1514,-0.046951294,-0.187797546,1.00000012,-0.469482422,-0.500000119,0.5,-412.492218,-14513.8125,0,,16.9296055,0,0,0,0,,-5.13831711,0,0,0,0,176.530457,0.262432724,0,0,0,-0.272938997,0.737414122,-9.58638382,0.001064224,-0.02979828,0,59.8851585,34.2890625,18.7312508,0.699999988,1.95000005,1.95000005,0.699999988,0,0,0,0,10000,0,0,0,0.100000001,0.100000001,0.100000001,0.100000001,0,30
Fri Jun 29 20:29:52 2018,40490303,693.341553,29.5804081,1513,1510,1088,1510,1088,1940,1514,1514,-0.046951294,-0.187797546,1.00000012,-0.469482422,-0.500000119,0.5,-427.106415,-14397.8193,0,,16.9131813,0,0,0,0,,-5.18718433,0,0,0,0,176.549591,0.260686576,0,0,0,-0.282515794,0.622492433,-9.50976944,0.006385345,-0.032990951,0.002128449,59.8851585,34.2890625,18.7312508,0.699999988,1.95000005,1.95000005,0.699999988,0,0,0,0,10000,0,0,0,0.100000001,0.100000001,0.100000001,0.100000001,0,30
Fri Jun 29 20:29:52 2018,40500304,693.341553,29.5804081,1513,1510,1088,1510,1088,1940,1514,1514,-0.046951294,-0.187797546,1.00000012,-0.469482422,-0.500000119,0.5,-383.541504,-14354.3184,0,,16.8986073,0,0,0,0,,-5.23660755,0,0,0,0,176.573578,0.261706322,0,0,0,-0.253785372,0.689530075,-9.48103905,-0.003192673,-0.034055177,0.001064224,59.8851585,34.2890625,18.7312508,0.699999988,1.95000005,1.95000005,0.699999988,0,0,0,0,10000,0,0,0,0.100000001,0.100000001,0.100000001,0.100000001,0,30
Fri Jun 29 20:29:52 2018,40510324,693.341553,29.5804081,1513,1510,1088,1510,1088,1940,1514,1514,-0.046951294,-0.187797546,1.00000012,-0.469482422,-0.500000119,0.5,-282.070465,-14600.7988,0,,16.8810635,0,0,0,0,,-5.28608513,0,0,0,0,176.604752,0.264587283,0,0,0,-0.18674773,0.665588081,-9.6438446,0.003192673,-0.036183626,-0.002128449,59.8851585,34.2890625,18.7312508,0.699999988,1.95000005,1.95000005,0.699999988,0,0,0,0,10000,0,0,0,0.100000001,0.100000001,0.100000001,0.100000001,0,30
Fri Jun 29 20:29:52 2018,40520326,693.428406,29.6165257,1513,1510,1088,1510,1088,1940,1514,1514,-0.046951294,-0.187797546,1.00000012,-0.469482422,-0.500000119,0.5,-426.981934,-14441.3174,0,,16.8647289,0,0,0,0,,-5.33662367,0,0,0,0,176.640228,0.264742374,0,0,0,-0.282515794,0.746990919,-9.53849983,-0.001064224,-0.032990951,-0.002128449,59.8851585,34.2890625,18.7312508,0.699999988,1.95000005,1.95000005,0.699999988,0,0,0,0,10000,0,0,0,0.100000001,0.100000001,0.100000001,0.100000001,0,30
Fri Jun 29 20:29:52 2018,40530328,693.428406,29.6165257,1513,1510,1088,1510,1088,1940,1514,1514,-0.046951294,-0.187797546,1.00000012,-0.469482422,-0.500000119,0.5,-339.981415,-14455.8105,0,,16.8463745,0,0,0,0,,-5.38640928,0,0,0,0,176.683212,0.262185603,0,0,0,-0.22505495,0.751779318,-9.54807663,0.003192673,-0.036183626,0.001064224,59.8851585,34.2890625,18.7312508,0.699999988,1.95000005,1.95000005,0.699999988,0,0,0,0,10000,0,0,0,0.100000001,0.100000001,0.100000001,0.100000001,0,30
Fri Jun 29 20:29:52 2018,40540329,693.428406,29.6165257,1513,1510,1088,1510,1088,1940,1514,1514,-0.046951294,-0.187797546,1.00000012,-0.469482422,-0.500000119,0.5,-434.293793,-14535.5635,0,,16.8279324,0,0,0,0,,-5.43682384,0,0,0,0,176.73317,0.262403995,0,0,0,-0.287304193,0.684741676,-9.60074902,0.004256897,-0.035119399,0.001064224,59.8851585,34.2890625,18.7312508,0.699999988,1.95000005,1.95000005,0.699999988,0,0,0,0,10000,0,0,0,0.100000001,0.100000001,0.100000001,0.100000001,0,30
Fri Jun 29 20:29:52 2018,40550331,693.428406,29.6165257,1513,1510,1088,1510,1088,1940,1514,1514,-0.046951294,-0.187797546,1.00000012,-0.469482422,-0.500000119,0.5,-310.992432,-14506.5557,0,,16.8098469,0,0,0,0,,-5.48736763,0,0,0,0,176.787201,0.262640178,0,0,0,-0.20590134,0.74220252,-9.58159542,0.001064224,-0.034055177,0.001064224,59.8851585,34.2890625,18.7312508,0.699999988,1.95000005,1.95000005,0.699999988,0,0,0,0,10000,0,0,0,0.100000001,0.100000001,0.100000001,0.100000001,0,30
Fri Jun 29 20:29:52 2018,40560349,693.428406,29.6165257,1513,1510,1088,1510,1088,1940,1514,1514,-0.046951294,-0.187797546,1.00000012,-0.469482422,-0.500000119,0.5,-426.962769,-14441.3174,0,,16.7906017,0,0,0,0,,-5.53812695,0,0,0,0,176.850113,0.262915224,0,0,0,-0.282515794,0.766144514,-9.53849983,0,-0.031926729,0.001064224,59.8851585,34.2890625,18.7312508,0.699999988,1.95000005,1.95000005,0.699999988,0,0,0,0,10000,0,0,0,0.100000001,0.100000001,0.100000001,0.100000001,0,30
Fri Jun 29 20:29:52 2018,40570376,694.462402,29.6449928,1513,1510,1088,1510,1088,1940,1514,1514,-0.046951294,-0.187797546,1.00000012,-0.469482422,-0.500000119,0.5,-311.006775,-14477.5576,0,,16.7708473,0,0,0,0,,-5.58805513,0,0,0,0,176.921402,0.267801315,0,0,0,-0.20590134,0.727837324,-9.56244183,-0.002128449,-0.037247852,-0.004256897,59.8851585,34.2890625,18.7312508,0.699999988,1.95000005,1.95000005,0.699999988,0,0,0,0,10000,0,0,0,0.100000001,0.100000001,0.100000001,0.100000001,0,30
Fri Jun 29 20:29:52 2018,40580377,694.462402,29.6449928,1513,1510,1088,1510,1088,1940,1514,1514,-0.046951294,-0.187797546,1.00000012,-0.469482422,-0.500000119,0.5,-180.541946,-14869.0293,0,,16.7498932,0,0,0,0,,-5.63859034,0,0,0,0,176.999832,0.264484584,0,0,0,-0.11971008,0.699106872,-9.82101536,0,-0.037247852,0,61.3195343,34.2890625,19.4250011,0.699999988,1.95000005,1.95000005,0.699999988,0,0,0,0,10000,0,0,0,0.100000001,0.100000001,0.100000001,0.100000001,0,30
Fri Jun 29 20:29:52 2018,40590407,694.462402,29.6449928,1513,1510,1088,1510,1088,1940,1514,1514,-0.046951294,-0.187797546,1.00000012,-0.469482422,-0.500000119,0.5,-383.560669,-14687.8018,0,,16.7288094,0,0,0,0,,-5.68965149,0,0,0,0,177.085922,0.263946056,0,0,0,-0.253785372,0.67037648,-9.70130539,0,-0.035119399,0.001064224,61.3195343,34.2890625,19.4250011,0.699999988,1.95000005,1.95000005,0.699999988,0,0,0,0,10000,0,0,0,0.100000001,0.100000001,0.100000001,0.100000001,0,30
Fri Jun 29 20:29:52 2018,40600415,694.462402,29.6449928,1513,1510,1088,1510,1088,1940,1514,1514,-0.046951294,-0.187797546,1.00000012,-0.469482422,-0.500000119,0.5,-318.285187,-14615.3018,0,,16.7069702,0,0,0,0,,-5.74045467,0,0,0,0,177.176483,0.264341921,0,0,0,-0.210689753,0.699106872,-9.6534214,0.003192673,-0.036183626,0.001064224,61.3195343,34.2890625,19.4250011,0.699999988,1.95000005,1.95000005,0.699999988,0,0,0,0,10000,0,0,0,0.100000001,0.100000001,0.100000001,0.100000001,0,30
Fri Jun 29 20:29:52 2018,40610416,694.462402,29.6449928,1513,1510,1088,1510,1088,1940,1514,1514,-0.046951294,-0.187797546,1.00000012,-0.469482422,-0.500000119,0.5,-354.437622,-14724.0479,0,,16.6848793,0,0,0,0,,-5.79194069,0,0,0,0,177.277176,0.267526805,0,0,0,-0.234631762,0.794874966,-9.72524738,0.002128449,-0.032990951,-0.002128449,61.3195343,34.2890625,19.4250011,0.699999988,1.95000005,1.95000005,0.699999988,0,0,0,0,10000,0,0,0,0.100000001,0.100000001,0.100000001,0.100000001,0,30
Fri Jun 29 20:29:52 2018,40620429,694.775208,29.6692448,1513,1510,1088,1510,1088,1940,1514,1514,-0.046951294,-0.187797546,1.00000012,-0.469482422,-0.500000119,0.5,-376.344543,-14637.0547,0,,16.6622238,0,0,0,0,,-5.84183979,0,0,0,0,177.388535,0.267098725,0,0,0,-0.248996973,0.636857629,-9.6677866,-0.002128449,-0.0393763,-0.001064224,61.3195343,34.2890625,19.4250011,0.699999988,1.95000005,1.95000005,0.699999988,0,0,0,0,10000,0,0,0,0.100000001,0.100000001,0.100000001,0.100000001,0,30
Fri Jun 29 20:29:52 2018,40630459,694.775208,29.6692448,1513,1510,1088,1510,1088,1940,1514,1514,-0.046951294,-0.187797546,1.00000012,-0.469482422,-0.500000119,0.5,-441.47641,-14535.5635,0,,16.6379185,0,0,0,0,,-5.89326525,0,0,0,0,177.506073,0.268527448,0,0,0,-0.292092592,0.751779318,-9.60074902,0.001064224,-0.038312074,-0.002128449,61.3195343,34.2890625,19.4250011,0.699999988,1.95000005,1.95000005,0.699999988,0,0,0,0,10000,0,0,0,0.100000001,0.100000001,0.100000001,0.100000001,0,30
Fri Jun 29 20:29:52 2018,40640460,694.775208,29.6692448,1513,1510,1088,1510,1088,1940,1514,1514,-0.046951294,-0.187797546,1.00000012,-0.469482422,-0.500000119,0.5,-448.730896,-14673.3076,0,,16.6134853,0,0,0,0,,-5.94469452,0,0,0,0,177.6371,0.262695968,0,0,0,-0.29688102,0.746990919,-9.69172859,-0.003192673,-0.036183626,0.005321121,61.3195343,34.2890625,19.4250011,0.699999988,1.95000005,1.95000005,0.699999988,0,0,0,0,10000,0,0,0,0.100000001,0.100000001,0.100000001,0.100000001,0,30
Fri Jun 29 20:29:52 2018,40650461,694.775208,29.6692448,1513,1510,1088,1510,1088,1940,1514,1514,-0.046951294,-0.187797546,1.00000012,-0.469482422,-0.500000119,0.5,-390.724121,-14550.0596,0,,16.5871048,0,0,0,0,,-5.99593925,0,0,0,0,177.778366,0.269717783,0,0,0,-0.258573771,0.756567717,-9.61032581,0,-0.035119399,-0.002128449,61.3195343,34.2890625,19.4250011,0.699999988,1.95000005,1.95000005,0.699999988,0,0,0,0,10000,0,0,0,0.100000001,0.100000001,0.100000001,0.100000001,0,30
Fri Jun 29 20:29:52 2018,40660535,693.793335,29.6867523,1513,1510,1088,1510,1088,1940,1514,1514,-0.046951294,-0.187797546,1.00000012,-0.469482422,-0.500000119,0.5,-281.965118,-14492.0547,0,,16.5609455,0,0,0,0,,-6.04743338,0,0,0,0,177.925415,0.265786111,0,0,0,-0.18674773,0.770932913,-9.57201862,-0.002128449,-0.032990951,0.003192673,61.3195343,34.2890625,19.4250011,0.699999988,1.95000005,1.95000005,0.699999988,0,0,0,0,10000,0,0,0,0.100000001,0.100000001,0.100000001,0.100000001,0,30
Fri Jun 29 20:29:52 2018,40670536,693.793335,29.6867523,1513,1510,1088,1510,1088,1940,1514,1514,-0.046951294,-0.187797546,1.00000012,-0.469482422,-0.500000119,0.5,-310.978058,-14593.5518,0,,16.5330029,0,0,0,0,,-6.09837055,0,0,0,0,178.088318,0.268328041,0,0,0,-0.20590134,0.756567717,-9.63905621,-0.001064224,-0.034055177,0.001064224,61.3195343,34.2890625,19.4250011,0.699999988,1.95000005,1.95000005,0.699999988,0,0,0,0,10000,0,0,0,0.100000001,0.100000001,0.100000001,0.100000001,0,30
Fri Jun 29 20:29:52 2018,40680538,693.793335,29.6867523,1513,1510,1088,1510,1088,1940,1514,1514,-0.046951294,-0.187797546,1.00000012,-0.469482422,-0.500000119,0.5,-405.175568,-14629.8066,0,,16.5039215,0,0,0,0,,-6.1493268,0,0,0,0,178.265976,0.269104689,0,0,0,-0.268150598,0.804451764,-9.6629982,-0.002128449,-0.035119399,0.001064224,61.3195343,34.2890625,19.4250011,0.699999988,1.95000005,1.95000005,0.699999988,0,0,0,0,10000,0,0,0,0.100000001,0.100000001,0.100000001,0.100000001,0,30
Fri Jun 29 20:29:52 2018,40690577,693.793335,29.6867523,1513,1510,1088,1510,1088,1940,1514,1514,-0.046951294,-0.187797546,1.00000012,-0.469482422,-0.500000119,0.5,-347.312469,-14608.0537,0,,16.4738503,0,0,0,0,,-6.19964504,0,0,0,0,178.449646,0.269907594,0,0,0,-0.229843363,0.67037648,-9.648633,0.001064224,-0.0393763,0.001064224,61.3195343,34.2890625,19.4250011,0.699999988,1.95000005,1.95000005,0.699999988,0,0,0,0,10000,0,0,0,0.100000001,0.100000001,0.100000001,0.100000001,0,30
Fri Jun 29 20:29:52 2018,40700586,693.793335,29.6867523,1513,1510,1088,1510,1088,1940,1514,1514,-0.046951294,-0.187797546,1.00000012,-0.469482422,-0.500000119,0.5,-441.543427,-14586.3105,0,,16.4428577,0,0,0,0,,-6.2509222,0,0,0,0,178.652542,0.269879639,0,0,0,-0.292092592,0.684741676,-9.63426781,-0.002128449,-0.037247852,0.002128449,61.3195343,34.2890625,19.4250011,0.699999988,1.95000005,1.95000005,0.699999988,0,0,0,0,10000,0,0,0,0.100000001,0.100000001,0.100000001,0.100000001,0,30
Fri Jun 29 20:29:52 2018,40710587,693.793335,29.6867523,1513,1510,1088,1510,1088,1940,1514,1514,-0.046951294,-0.187797546,1.00000012,-0.469482422,-0.500000119,0.5,-369.027893,-14600.8047,0,,16.4098835,0,0,0,0,,-6.30201769,0,0,0,0,178.866516,0.273559719,0,0,0,-0.244208574,0.703895271,-9.6438446,0.002128449,-0.036183626,-0.001064224,61.3195343,34.2890625,19.4250011,0.699999988,1.95000005,1.95000005,0.699999988,0,0,0,0,10000,0,0,0,0.100000001,0.100000001,0.100000001,0.100000001,0,30
Fri Jun 29 20:29:52 2018,40720588,693.619568,29.7051678,1513,1510,1088,1510,1088,1940,1514,1514,-0.046951294,-0.187797546,1.00000012,-0.469482422,-0.500000119,0.5,-347.255005,-14716.7988,0,,16.3762379,0,0,0,0,,-6.3532052,0,0,0,0,179.098068,0.272742182,0,0,0,-0.229843363,0.727837324,-9.72045898,0,-0.034055177,0.001064224,61.3195343,34.2890625,19.4250011,0.699999988,1.95000005,1.95000005,0.699999988,0,0,0,0,10000,0,0,0,0.100000001,0.100000001,0.100000001,0.100000001,0,30
Fri Jun 29 20:29:52 2018,40730614,693.619568,29.7051678,1513,1510,1088,1510,1088,1940,1514,1514,-0.046951294,-0.187797546,1.00000012,-0.469482422,-0.500000119,0.5,-405.233032,-14586.3086,0,,16.3403015,0,0,0,0,,-6.40431118,0,0,0,0,179.344986,0.275651395,0,0,0,-0.268150598,0.746990919,-9.63426781,0.004256897,-0.032990951,-0.001064224,61.3195343,34.2890625,19.4250011,0.699999988,1.95000005,1.95000005,0.699999988,0,0,0,0,10000,0,0,0,0.100000001,0.100000001,0.100000001,0.100000001,0,30
Fri Jun 29 20:29:52 2018,40740635,693.619568,29.7051678,1513,1510,1088,1510,1088,1940,1514,1514,-0.046951294,-0.187797546,1.00000012,-0.469482422,-0.500000119,0.5,-383.551086,-14513.8105,0,,16.3038673,0,0,0,0,,-6.45456409,0,0,0,0,179.610748,0.274983406,0,0,0,-0.253785372,0.679953277,-9.58638382,0,-0.035119399,0.001064224,61.3195343,34.2890625,19.4250011,0.699999988,1.95000005,1.95000005,0.699999988,0,0,0,0,10000,0,0,0,0.100000001,0.100000001,0.100000001,0.100000001,0,30
Fri Jun 29 20:29:52 2018,40750637,693.619568,29.7051678,1513,1510,1088,1510,1088,1940,1514,1514,-0.046951294,-0.187797546,1.00000012,-0.469482422,-0.500000119,0.5,-253.000092,-14542.7998,0,,16.265152,0,0,0,0,,-6.50542164,0,0,0,0,179.891785,0.278956652,0,0,0,-0.16759412,0.737414122,-9.60553741,0.002128449,-0.034055177,-0.002128449,61.3195343,34.2890625,19.4250011,0.699999988,1.95000005,1.95000005,0.699999988,0,0,0,0,10000,0,0,0,0.100000001,0.100000001,0.100000001,0.100000001,0,30
Fri Jun 29 20:29:52 2018,40760638,694.054016,29.7178783,1513,1510,1088,1510,1088,1940,1514,1514,-0.046951294,-0.187797546,1.00000012,-0.469482422,-0.500000119,0.5,-332.731781,-14542.8057,0,,16.2255039,0,0,0,0,,-6.5556469,0,0,0,0,-179.806778,-1.29530382,0,0,0,-0.220266551,0.751779318,-9.60553741,-0.002128449,-0.035119399,0,61.3195343,34.2890625,19.4250011,0.699999988,1.95000005,1.95000005,0.699999988,0,0,0,0,10000,0,0,0,0.100000001,0.100000001,0.100000001,0.100000001,0,30
Fri Jun 29 20:29:52 2018,40770639,694.054016,29.7178783,1513,1510,1088,1510,1088,1940,1514,1514,-0.046951294,-0.187797546,1.00000012,-0.469482422,-0.500000119,0.5,-310.963684,-14564.5527,0,,16.1836414,0,0,0,0,,-6.60615683,0,0,0,0,-179.485977,-1.29573119,0,0,0,-0.20590134,0.770932913,-9.61990261,-0.003192673,-0.034055177,0.002128449,61.3195343,34.2890625,19.4250011,0.699999988,1.95000005,1.95000005,0.699999988,0,0,0,0,10000,0,0,0,0.100000001,0.100000001,0.100000001,0.100000001,0,30
Fri Jun 29 20:29:52 2018,40780640,694.054016,29.7178783,1513,1510,1088,1510,1088,1940,1514,1514,-0.046951294,-0.187797546,1.00000012,-0.469482422,-0.500000119,0.5,-441.500336,-14753.0527,0,,16.1381931,0,0,0,0,,-6.65664291,0,0,0,0,-179.137238,-1.29329181,0,0,0,-0.292092592,0.727837324,-9.74440098,0.002128449,-0.032990951,0.001064224,61.3195343,34.2890625,19.4250011,0.699999988,1.95000005,1.95000005,0.699999988,0,0,0,0,10000,0,0,0,0.100000001,0.100000001,0.100000001,0.100000001,0,30
Fri Jun 29 20:29:52 2018,40790641,694.054016,29.7178783,1513,1510,1088,1510,1088,1940,1514,1514,-0.046951294,-0.187797546,1.00000012,-0.469482422,-0.500000119,0.5,-412.473083,-14506.5625,0,,16.0921326,0,0,0,0,,-6.70683861,0,0,0,0,-178.771484,-1.28894818,0,0,0,-0.272938997,0.756567717,-9.58159542,0.002128449,-0.031926729,-0.002128449,61.3195343,34.2890625,19.4250011,0.699999988,1.95000005,1.95000005,0.699999988,0,0,0,0,10000,0,0,0,0.100000001,0.100000001,0.100000001,0.100000001,0,30
Fri Jun 29 20:29:52 2018,40800645,694.054016,29.7178783,1513,1510,1088,1510,1088,1940,1514,1514,-0.046951294,-0.187797546,1.00000012,-0.469482422,-0.500000119,0.5,-332.736572,-14557.3057,0,,16.0438614,0,0,0,0,,-6.75567961,0,0,0,0,-178.383392,-1.28908145,0,0,0,-0.220266551,0.746990919,-9.61511421,0.003192673,-0.038312074,0,61.3195343,34.2890625,19.4250011,0.699999988,1.95000005,1.95000005,0.699999988,0,0,0,0,10000,0,0,0,0.100000001,0.100000001,0.100000001,0.100000001,0,30
Fri Jun 29 20:29:52 2018,40810647,694.054016,29.7178783,1513,1510,1088,1510,1088,1940,1514,1514,-0.046951294,-0.187797546,1.00000012,-0.469482422,-0.500000119,0.5,-405.300049,-14571.8096,0,,15.9935303,0,0,0,0,,-6.80501795,0,0,0,0,-177.961029,-1.28632021,0,0,0,-0.268150598,0.679953277,-9.62469101,-0.003192673,-0.0393763,-0.001064224,61.3195343,34.2890625,19.4250011,0.699999988,1.95000005,1.95000005,0.699999988,0,0,0,0,10000,0,0,0,0.100000001,0.100000001,0.100000001,0.100000001,0,30
Fri Jun 29 20:29:52 2018,40820649,694.054016,29.7178783,1513,1510,1088,1510,1088,1940,1514,1514,-0.046951294,-0.187797546,1.00000012,-0.469482422,-0.500000119,0.5,-376.191315,-14550.0586,0,,15.9396563,0,0,0,0,,-6.85561419,0,0,0,0,-177.516953,-1.28620863,0,0,0,-0.248996973,0.790086567,-9.61032581,0.001064224,-0.031926729,0.001064224,61.3195343,34.2890625,19.4250011,0.699999988,1.95000005,1.95000005,0.699999988,0,0,0,0,10000,0,0,0,0.100000001,0.100000001,0.100000001,0.100000001,0,30
Fri Jun 29 20:29:52 2018,40830651,693.159058,29.7322102,1513,1509,1088,1510,1088,1940,1514,1514,-0.046951294,-0.23474884,1.00000012,-0.469482422,-0.500000119,0.5,-195.046021,-14550.0459,0,,15.8829317,0,0,0,0,,-6.90429592,0,0,0,0,-177.041183,-1.28138411,0,0,0,-0.129286885,0.694318473,-9.61032581,0.004256897,-0.035119399,-0.002128449,61.3195343,34.2890625,19.4250011,0.699999988,1.95000005,1.95000005,0.699999988,0,0,0,0,10000,0,0,0,0.100000001,0.100000001,0.100000001,0.100000001,0,30
Fri Jun 29 20:29:52 2018,40840656,693.159058,29.7322102,1513,1509,1088,1510,1088,1940,1514,1514,-0.046951294,-0.23474884,1.00000012,-0.469482422,-0.500000119,0.5,-361.687256,-14528.3086,0,,15.8238192,0,0,0,0,,-6.95261192,0,0,0,0,-176.538208,-1.28193009,0,0,0,-0.239420161,0.794874966,-9.59596062,0.002128449,-0.037247852,0.001064224,58.4507828,35.7328148,19.7718754,0.699999988,1.95000005,1.95000005,0.699999988,0,0,0,0,10000,0,0,0,0.100000001,0.100000001,0.100000001,0.100000001,0,30
Fri Jun 29 20:29:52 2018,40850660,693.159058,29.7322102,1513,1510,1088,1510,1088,1940,1514,1514,-0.046951294,-0.187797546,1.00000012,-0.469482422,-0.500000119,0.5,-368.97522,-14753.0479,0,,15.7606487,0,0,0,0,,-7.00127172,0,0,0,0,-176.000534,-1.28323925,0,0,0,-0.244208574,0.756567717,-9.74440098,0.003192673,-0.035119399,0.005321121,58.4507828,35.7328148,19.7718754,0.699999988,1.95000005,1.95000005,0.699999988,0,0,0,0,10000,0,0,0,0.100000001,0.100000001,0.100000001,0.100000001,0,30
Fri Jun 29 20:29:52 2018,40860668,693.159058,29.7322102,1513,1510,1088,1510,1088,1940,1514,1514,-0.046951294,-0.187797546,1.00000012,-0.469482422,-0.500000119,0.5,-282.080048,-14484.8047,0,,15.6938887,0,0,0,0,,-7.04884481,0,0,0,0,-175.414291,-1.27610195,0,0,0,-0.18674773,0.656011283,-9.56723022,-0.002128449,-0.037247852,0,58.4507828,35.7328148,19.7718754,0.699999988,1.95000005,1.95000005,0.699999988,0,0,0,0,10000,0,0,0,0.100000001,0.100000001,0.100000001,0.100000001,0,30
Fri Jun 29 20:29:52 2018,40870674,693.732544,29.741806,1513,1510,1088,1510,1088,1940,1514,1514,-0.046951294,-0.187797546,1.00000012,-0.469482422,-0.500000119,0.5,-354.557312,-14492.0596,0,,15.6221571,0,0,0,0,,-7.09721231,0,0,0,0,-174.78801,-1.27336419,0,0,0,-0.234631762,0.675164878,-9.57201862,0.001064224,-0.032990951,0,58.4507828,35.7328148,19.7718754,0.699999988,1.95000005,1.95000005,0.699999988,0,0,0,0,10000,0,0,0,0.100000001,0.100000001,0.100000001,0.100000001,0,30
Fri Jun 29 20:29:52 2018,40880678,693.732544,29.741806,1513,1510,1088,1510,1088,1940,1514,1514,-0.046951294,-0.187797546,1.00000012,-0.469482422,-0.500000119,0.5,-354.485504,-14513.8086,0,,15.5473433,0,0,0,0,,-7.14402342,0,0,0,0,-174.117432,-1.27226245,0,0,0,-0.234631762,0.746990919,-9.58638382,-0.002128449,-0.036183626,0.002128449,58.4507828,35.7328148,19.7718754,0.699999988,1.95000005,1.95000005,0.699999988,0,0,0,0,10000,0,0,0,0.100000001,0.100000001,0.100000001,0.100000001,0,30
Fri Jun 29 20:29:52 2018,40890683,693.732544,29.741806,1513,1510,1088,1510,1088,1940,1514,1514,-0.046951294,-0.187797546,1.00000012,-0.469482422,-0.500000119,0.5,-253.024033,-14753.04,0,,15.4674854,0,0,0,0,,-7.19155025,0,0,0,0,-173.395432,-1.26453173,0,0,0,-0.16759412,0.713472068,-9.74440098,-0.002128449,-0.031926729,-0.003192673,58.4507828,35.7328148,19.7718754,0.699999988,1.95000005,1.95000005,0.699999988,0,0,0,0,10000,0,0,0,0.100000001,0.100000001,0.100000001,0.100000001,0,30
Fri Jun 29 20:29:52 2018,40900690,693.732544,29.741806,1513,1510,1088,1510,1088,1940,1514,1514,-0.046951294,-0.187797546,1.00000012,-0.469482422,-0.500000119,0.5,-260.264069,-14666.0449,0,,15.3826694,0,0,0,0,,-7.23728085,0,0,0,0,-172.627792,-1.26209092,0,0,0,-0.172382519,0.723048925,-9.68694019,0.002128449,-0.036183626,-0.002128449,58.4507828,35.7328148,19.7718754,0.699999988,1.95000005,1.95000005,0.699999988,0,0,0,0,10000,0,0,0,0.100000001,0.100000001,0.100000001,0.100000001,0,30
Fri Jun 29 20:29:52 2018,40910693,694.062744,29.748682,1513,1510,1088,1510,1088,1940,1514,1514,-0.046951294,-0.187797546,1.00000012,-0.469482422,-0.500000119,0.5,-274.725067,-14622.5479,0,,15.2925043,0,0,0,0,,-7.28245401,0,0,0,0,-171.792999,-1.2593565,0,0,0,-0.181959331,0.761356115,-9.6582098,0,-0.040440522,-0.001064224,58.4507828,35.7328148,19.7718754,0.699999988,1.95000005,1.95000005,0.699999988,0,0,0,0,10000,0,0,0,0.100000001,0.100000001,0.100000001,0.100000001,0,30
Fri Jun 29 20:29:52 2018,40920701,694.062744,29.748682,1513,1510,1088,1510,1088,1940,1514,1514,-0.046951294,-0.187797546,1.00000012,-0.469482422,-0.500000119,0.5,-376.296661,-14484.8115,0,,15.1971989,0,0,0,0,,-7.32942581,0,0,0,0,-170.901077,-1.25911701,0,0,0,-0.248996973,0.684741676,-9.56723022,-0.002128449,-0.030862505,0.003192673,58.4507828,35.7328148,19.7718754,0.699999988,1.95000005,1.95000005,0.699999988,0,0,0,0,10000,0,0,0,0.100000001,0.100000001,0.100000001,0.100000001,0,30
Fri Jun 29 20:29:52 2018,40930704,694.062744,29.748682,1513,1510,1088,1510,1088,1940,1514,1514,-0.046951294,-0.187797546,1.00000012,-0.469482422,-0.500000119,0.5,-369.037476,-14695.0508,0,,15.093648,0,0,0,0,,-7.3737216,0,0,0,0,-169.935959,-1.25032341,0,0,0,-0.244208574,0.694318473,-9.70609379,0.005321121,-0.034055177,-0.002128449,58.4507828,35.7328148,19.7718754,0.699999988,1.95000005,1.95000005,0.699999988,0,0,0,0,10000,0,0,0,0.100000001,0.100000001,0.100000001,0.100000001,0,30
Fri Jun 29 20:29:52 2018,40940709,694.062744,29.748682,1513,1510,1088,1510,1088,1940,1514,1514,-0.046951294,-0.187797546,1.00000012,-0.469482422,-0.500000119,0.5,-427.04895,-14586.3096,0,,14.9854393,0,0,0,0,,-7.41778469,0,0,0,0,-168.904663,-1.24672997,0,0,0,-0.282515794,0.679953277,-9.63426781,0.004256897,-0.035119399,-0.001064224,58.4507828,35.7328148,19.7718754,0.699999988,1.95000005,1.95000005,0.699999988,0,0,0,0,10000,0,0,0,0.100000001,0.100000001,0.100000001,0.100000001,0,30
Fri Jun 29 20:29:52 2018,40950713,694.062744,29.748682,1513,1510,1088,1510,1088,1940,1514,1514,-0.046951294,-0.187797546,1.00000012,-0.469482422,-0.500000119,0.5,-318.203766,-14310.8154,0,,14.8702974,0,0,0,0,,-7.46111679,0,0,0,0,-167.791122,-1.24735153,0,0,0,-0.210689753,0.78050977,-9.4523077,-0.001064224,-0.036183626,0.005321121,58.4507828,35.7328148,19.7718754,0.699999988,1.95000005,1.95000005,0.699999988,0,0,0,0,10000,0,0,0,0.100000001,0.100000001,0.100000001,0.100000001,0,30
Fri Jun 29 20:29:52 2018,40960719,694.062744,29.748682,1513,1510,1088,1510,1088,1940,1514,1514,-0.046951294,-0.187797546,1.00000012,-0.469482422,-0.500000119,0.5,-361.725555,-14760.2969,0,,14.7469416,0,0,0,0,,-7.50337791,0,0,0,0,-166.598312,-1.23664784,0,0,0,-0.239420161,0.756567717,-9.74918938,0,-0.0393763,-0.001064224,58.4507828,35.7328148,19.7718754,0.699999988,1.95000005,1.95000005,0.699999988,0,0,0,0,10000,0,0,0,0.100000001,0.100000001,0.100000001,0.100000001,0,30
Fri Jun 29 20:29:52 2018,40970725,693.21991,29.7617798,1513,1510,1088,1510,1088,1940,1514,1514,-0.046951294,-0.187797546,1.00000012,-0.469482422,-0.500000119,0.5,-470.513306,-14535.5654,0,,14.6138859,0,0,0,0,,-7.54632092,0,0,0,0,-165.301376,-1.23280799,0,0,0,-0.311246216,0.713472068,-9.60074902,0.001064224,-0.032990951,0.001064224,58.4507828,35.7328148,19.7718754,0.699999988,1.95000005,1.95000005,0.699999988,0,0,0,0,10000,0,0,0,0.100000001,0.100000001,0.100000001,0.100000001,0,30
Fri Jun 29 20:29:52 2018,40980729,693.21991,29.7617798,1513,1510,1088,1510,1088,1940,1514,1514,-0.046951294,-0.187797546,1.00000012,-0.469482422,-0.500000119,0.5,-427.072906,-14368.8203,0,,14.4701347,0,0,0,0,,-7.58686256,0,0,0,0,-163.88768,-1.22662807,0,0,0,-0.282515794,0.656011283,-9.49061584,0.002128449,-0.035119399,0.001064224,58.4507828,35.7328148,19.7718754,0.699999988,1.95000005,1.95000005,0.699999988,0,0,0,0,10000,0,0,0,0.100000001,0.100000001,0.100000001,0.100000001,0,30
Fri Jun 29 20:29:52 2018,40990735,693.21991,29.7617798,1513,1510,1088,1510,1088,1940,1514,1514,-0.046951294,-0.187797546,1.00000012,-0.469482422,-0.500000119,0.5,-405.285706,-14506.5625,0,,14.3166342,0,0,0,0,,-7.62703991,0,0,0,0,-162.363052,-1.21904814,0,0,0,-0.268150598,0.694318473,-9.58159542,0,-0.034055177,0,58.4507828,35.7328148,19.7718754,0.699999988,1.95000005,1.95000005,0.699999988,0,0,0,0,10000,0,0,0,0.100000001,0.100000001,0.100000001,0.100000001,0,30
Fri Jun 29 20:29:52 2018,41000741,693.21991,29.7617798,1513,1510,1088,1510,1088,1940,1514,1514,-0.046951294,-0.187797546,1.00000012,-0.469482422,-0.500000119,0.5,-383.460114,-14492.0615,0,,14.1519489,0,0,0,0,,-7.66578197,0,0,0,0,-160.719025,-1.21186125,0,0,0,-0.253785372,0.770932913,-9.57201862,0,-0.035119399,0,58.4507828,35.7328148,19.7718754,0.699999988,1.95000005,1.95000005,0.699999988,0,0,0,0,10000,0,0,0,0.100000001,0.100000001,0.100000001,0.100000001,0,30
Fri Jun 29 20:29:52 2018,41010752,693.211182,29.7702103,1513,1510,1088,1510,1088,1940,1514,1514,-0.046951294,-0.187797546,1.00000012,-0.469482422,-0.500000119,0.5,-339.971832,-14782.0439,0,,13.9748383,0,0,0,0,,-7.70374107,0,0,0,0,-158.943085,-1.20501256,0,0,0,-0.22505495,0.761356115,-9.76355457,0.002128449,-0.034055177,0.001064224,58.4507828,35.7328148,19.7718754,0.699999988,1.95000005,1.95000005,0.699999988,0,0,0,0,10000,0,0,0,0.100000001,0.100000001,0.100000001,0.100000001,0,30
Fri Jun 29 20:29:52 2018,41020754,693.211182,29.7702103,1513,1510,1088,1510,1088,1940,1514,1514,-0.046951294,-0.187797546,1.00000012,-0.469482422,-0.500000119,0.5,-397.983337,-14542.8096,0,,13.7844152,0,0,0,0,,-7.73985815,0,0,0,0,-157.019135,-1.19477212,0,0,0,-0.263362169,0.746990919,-9.60553741,0.003192673,-0.036183626,-0.001064224,58.4507828,35.7328148,19.7718754,0.699999988,1.95000005,1.95000005,0.699999988,0,0,0,0,10000,0,0,0,0.100000001,0.100000001,0.100000001,0.100000001,0,30
Fri Jun 29 20:29:52 2018,41030760,693.211182,29.7702103,1513,1510,1088,1510,1088,1940,1514,1514,-0.046951294,-0.187797546,1.00000012,-0.469482422,-0.500000119,0.5,-231.322983,-14615.2959,0,,13.5790396,0,0,0,0,,-7.77409029,0,0,0,0,-154.927841,-1.18471515,0,0,0,-0.153228909,0.665588081,-9.6534214,0,-0.040440522,-0.002128449,58.4507828,35.7328148,19.7718754,0.699999988,1.95000005,1.95000005,0.699999988,0,0,0,0,10000,0,0,0,0.100000001,0.100000001,0.100000001,0.100000001,0,30
Fri Jun 29 20:29:52 2018,41040761,693.211182,29.7702103,1513,1510,1088,1510,1088,1940,1514,1514,-0.046951294,-0.187797546,1.00000012,-0.469482422,-0.500000119,0.5,-267.54245,-14492.0537,0,,13.3561354,0,0,0,0,,-7.80729342,0,0,0,0,-152.658646,-1.1757102,0,0,0,-0.177170917,0.694318473,-9.57201862,0.004256897,-0.040440522,-0.001064224,58.4507828,35.7328148,19.7718754,0.699999988,1.95000005,1.95000005,0.699999988,0,0,0,0,10000,0,0,0,0.100000001,0.100000001,0.100000001,0.100000001,0,30
Fri Jun 29 20:29:52 2018,41050770,693.211182,29.7702103,1513,1510,1088,1510,1088,1940,1514,1514,-0.046951294,-0.187797546,1.00000012,-0.469482422,-0.500000119,0.5,-405.285706,-14622.5566,0,,13.1169567,0,0,0,0,,-7.83930302,0,0,0,0,-150.204529,-1.1668117,0,0,0,-0.268150598,0.694318473,-9.6582098,0.003192673,-0.037247852,0.001064224,58.4507828,35.7328148,19.7718754,0.699999988,1.95000005,1.95000005,0.699999988,0,0,0,0,10000,0,0,0,0.100000001,0.100000001,0.100000001,0.100000001,0,30
Fri Jun 29 20:29:52 2018,41060777,693.211182,29.7702103,1513,1510,1088,1510,1088,1940,1514,1514,-0.046951294,-0.187797546,1.00000012,-0.469482422,-0.500000119,0.5,-347.317261,-14651.5518,0,,12.8605223,0,0,0,0,,-7.86987734,0,0,0,0,-147.559448,-1.1534189,0,0,0,-0.229843363,0.665588081,-9.6773634,-0.001064224,-0.030862505,-0.001064224,58.4507828,35.7328148,19.7718754,0.699999988,1.95000005,1.95000005,0.699999988,0,0,0,0,10000,0,0,0,0.100000001,0.100000001,0.100000001,0.100000001,0,30
Fri Jun 29 20:29:52 2018,41070784,693.289368,29.7762394,1513,1510,1088,1510,1088,1940,1514,1514,-0.046951294,-0.187797546,1.00000012,-0.469482422,-0.500000119,0.5,-354.50943,-14600.8037,0,,12.5828209,0,0,0,0,,-7.89697886,0,0,0,0,-144.69574,-1.14181507,0,0,0,-0.234631762,0.723048925,-9.6438446,-0.001064224,-0.034055177,0,58.4507828,35.7328148,19.7718754,0.699999988,1.95000005,1.95000005,0.699999988,0,0,0,0,10000,0,0,0,0.100000001,0.100000001,0.100000001,0.100000001,0,30
Fri Jun 29 20:29:52 2018,41080789,693.289368,29.7762394,1513,1510,1088,1510,1088,1940,1514,1514,-0.046951294,-0.187797546,1.00000012,-0.469482422,-0.500000119,0.5,-303.733215,-14528.3047,0,,12.2860098,0,0,0,0,,-7.9221282,0,0,0,0,-141.627457,-1.1320616,0,0,0,-0.201112941,0.751779318,-9.59596062,-0.002128449,-0.035119399,0.004256897,58.4507828,35.7328148,19.7718754,0.699999988,1.95000005,1.95000005,0.699999988,0,0,0,0,10000,0,0,0,0.100000001,0.100000001,0.100000001,0.100000001,0,30
Fri Jun 29 20:29:52 2018,41090797,693.289368,29.7762394,1513,1510,1088,1510,1088,1940,1514,1514,-0.046951294,-0.187797546,1.00000012,-0.469482422,-0.500000119,0.5,-332.755707,-14557.3057,0,,11.9682093,0,0,0,0,,-7.9447298,0,0,0,0,-138.338455,-1.1121943,0,0,0,-0.220266551,0.727837324,-9.61511421,-0.004256897,-0.036183626,-0.002128449,58.4507828,35.7328148,19.7718754,0.699999988,1.95000005,1.95000005,0.699999988,0,0,0,0,10000,0,0,0,0.100000001,0.100000001,0.100000001,0.100000001,0,30
Fri Jun 29 20:29:52 2018,41100800,693.289368,29.7762394,1513,1510,1088,1510,1088,1940,1514,1514,-0.046951294,-0.187797546,1.00000012,-0.469482422,-0.500000119,0.5,-383.48407,-14651.5537,0,,11.6287861,0,0,0,0,,-7.96505976,0,0,0,0,-134.840088,-1.09964573,0,0,0,-0.253785372,0.746990919,-9.6773634,0.002128449,-0.036183626,0.001064224,58.4507828,35.7328148,19.7718754,0.699999988,1.95000005,1.95000005,0.699999988,0,0,0,0,10000,0,0,0,0.100000001,0.100000001,0.100000001,0.100000001,0,30
Fri Jun 29 20:29:52 2018,41110804,693.072144,29.788496,1513,1510,1088,1510,1088,1940,1514,1514,-0.046951294,-0.187797546,1.00000012,-0.469482422,-0.500000119,0.5,-281.998627,-14644.2969,0,,11.2700109,0,0,0,0,,-7.98273897,0,0,0,0,-131.140533,-1.08255816,0,0,0,-0.18674773,0.737414122,-9.672575,0.004256897,-0.035119399,0,58.4507828,35.7328148,19.7718754,0.699999988,1.95000005,1.95000005,0.699999988,0,0,0,0,10000,0,0,0,0.100000001,0.100000001,0.100000001,0.100000001,0,30
Fri Jun 29 20:29:52 2018,41120809,693.072144,29.788496,1513,1510,1088,1510,1088,1940,1514,1514,-0.046951294,-0.187797546,1.00000012,-0.469482422,-0.500000119,0.5,-310.982849,-14593.5518,0,,10.8936787,0,0,0,0,,-7.997787,0,0,0,0,-127.255989,-1.06557679,0,0,0,-0.20590134,0.751779318,-9.63905621,-0.003192673,-0.031926729,0,58.4507828,35.7328148,19.7718754,0.699999988,1.95000005,1.95000005,0.699999988,0,0,0,0,10000,0,0,0,0.100000001,0.100000001,0.100000001,0.100000001,0,30
Fri Jun 29 20:29:52 2018,41130812,693.072144,29.788496,1513,1510,1088,1510,1088,1940,1514,1514,-0.046951294,-0.187797546,1.00000012,-0.469482422,-0.500000119,0.5,-238.500793,-14724.04,0,,10.4980783,0,0,0,0,,-8.00873184,0,0,0,0,-123.208801,-1.04879928,0,0,0,-0.158017308,0.737414122,-9.72524738,0.002128449,-0.035119399,0.001064224,58.4507828,35.7328148,19.7718754,0.699999988,1.95000005,1.95000005,0.699999988,0,0,0,0,10000,0,0,0,0.100000001,0.100000001,0.100000001,0.100000001,0,30
Fri Jun 29 20:29:52 2018,41140822,693.072144,29.788496,1513,1510,1088,1510,1088,1940,1514,1514,-0.046951294,-0.187797546,1.00000012,-0.469482422,-0.500000119,0.5,-361.730347,-14608.0547,0,,10.088644,0,0,0,0,,-8.0176506,0,0,0,0,-119.032249,-1.03145635,0,0,0,-0.239420161,0.751779318,-9.648633,0.001064224,-0.030862505,0.002128449,58.4507828,35.7328148,19.7718754,0.699999988,1.95000005,1.95000005,0.699999988,0,0,0,0,10000,0,0,0,0.100000001,0.100000001,0.100000001,0.100000001,0,30
Fri Jun 29 20:29:52 2018,41150829,693.072144,29.788496,1513,1510,1088,1510,1088,1940,1514,1514,-0.046951294,-0.187797546,1.00000012,-0.469482422,-0.500000119,0.5,-311.069031,-14767.543,0,,9.66914082,0,0,0,0,,-8.02143002,0,0,0,0,-114.788338,-1.01198912,0,0,0,-0.20590134,0.665588081,-9.75397778,0.005321121,-0.037247852,0.001064224,58.4507828,35.7328148,19.7718754,0.699999988,1.95000005,1.95000005,0.699999988,0,0,0,0,10000,0,0,0,0.100000001,0.100000001,0.100000001,0.100000001,0,30
Fri Jun 29 20:29:52 2018,41160835,693.072144,29.788496,1513,1510,1088,1510,1088,1940,1514,1514,-0.046951294,-0.187797546,1.00000012,-0.469482422,-0.500000119,0.5,-390.733704,-14637.0557,0,,9.24578285,0,0,0,0,,-8.02325439,0,0,0,0,-110.51281,-0.997872949,0,0,0,-0.258573771,0.746990919,-9.6677866,-0.004256897,-0.036183626,0.006385345,58.4507828,35.7328148,19.7718754,0.699999988,1.95000005,1.95000005,0.699999988,0,0,0,0,10000,0,0,0,0.100000001,0.100000001,0.100000001,0.100000001,0,30
Fri Jun 29 20:29:52 2018,41170837,693.141663,29.7853165,1513,1510,1088,1510,1088,1940,1514,1514,-0.046951294,-0.187797546,1.00000012,-0.469482422,-0.500000119,0.5,-412.439545,-14484.8135,0,,8.81829453,0,0,0,0,,-8.02149963,0,0,0,0,-106.256721,-0.976522684,0,0,0,-0.272938997,0.790086567,-9.56723022,0.005321121,-0.037247852,0.003192673,58.4507828,35.7328148,19.7718754,0.699999988,1.95000005,1.95000005,0.699999988,0,0,0,0,10000,0,0,0,0.100000001,0.100000001,0.100000001,0.100000001,0,30
Fri Jun 29 20:29:52 2018,41180842,693.141663,29.7853165,1513,1510,1088,1510,1088,1940,1514,1514,-0.046951294,-0.187797546,1.00000012,-0.469482422,-0.500000119,0.5,-361.70639,-14542.8076,0,,8.39610481,0,0,0,0,,-8.01668549,0,0,0,0,-102.070702,-0.955478728,0,0,0,-0.239420161,0.775721312,-9.60553741,0.002128449,-0.035119399,0,58.4507828,35.7328148,19.7718754,0.699999988,1.95000005,1.95000005,0.699999988,0,0,0,0,10000,0,0,0,0.100000001,0.100000001,0.100000001,0.100000001,0,30
Fri Jun 29 20:29:52 2018,41190850,693.141663,29.7853165,1513,1510,1088,1510,1088,1940,1514,1514,-0.046951294,-0.187797546,1.00000012,-0.469482422,-0.500000119,0.5,-376.191315,-14484.8115,0,,7.98162794,0,0,0,0,,-8.00822926,0,0,0,0,-97.9986496,-0.939507425,0,0,0,-0.248996973,0.790086567,-9.56723022,0.001064224,-0.035119399,0.002128449,58.4507828,35.7328148,19.7718754,0.699999988,1.95000005,1.95000005,0.699999988,0,0,0,0,10000,0,0,0,0.100000001,0.100000001,0.100000001,0.100000001,0,30
Fri Jun 29 20:29:52 2018,41200856,693.141663,29.7853165,1513,1510,1088,1510,1088,1940,1514,1514,-0.046951294,-0.187797546,1.00000012,-0.469482422,-0.500000119,0.5,-209.559692,-14470.3008,0,,7.57833862,0,0,0,0,,-7.9963131,0,0,0,0,-94.0730667,-0.92143178,0,0,0,-0.138863698,0.679953277,-9.55765343,0.004256897,-0.037247852,0.001064224,58.4507828,35.7328148,19.7718754,0.699999988,1.95000005,1.95000005,0.699999988,0,0,0,0,10000,0,0,0,0.100000001,0.100000001,0.100000001,0.100000001,0,30
Fri Jun 29 20:29:52 2018,41210859,692.038147,29.7964058,1513,1510,1088,1510,1088,1940,1514,1514,-0.046951294,-0.187797546,1.00000012,-0.469482422,-0.500000119,0.5,-282.075256,-14528.3027,0,,7.19274235,0,0,0,0,,-7.98160648,0,0,0,0,-90.3382797,-0.904190183,0,0,0,-0.18674773,0.660799682,-9.59596062,-0.001064224,-0.036183626,0,58.4507828,35.7328148,19.7718754,0.699999988,1.95000005,1.95000005,0.699999988,0,0,0,0,10000,0,0,0,0.100000001,0.100000001,0.100000001,0.100000001,0,30
Fri Jun 29 20:29:52 2018,41220862,692.038147,29.7964058,1513,1510,1088,1510,1088,1940,1514,1514,-0.046951294,-0.187797546,1.00000012,-0.469482422,-0.500000119,0.5,-427.020233,-14666.0557,0,,6.82367611,0,0,0,0,,-7.96384192,0,0,0,0,-86.7943344,-0.88686794,0,0,0,-0.282515794,0.70868367,-9.68694019,0.001064224,-0.037247852,-0.002128449,60.9609413,35.3718758,19.4250011,0.699999988,1.95000005,1.95000005,0.699999988,0,0,0,0,10000,0,0,0,0.100000001,0.100000001,0.100000001,0.100000001,0,30
Fri Jun 29 20:29:52 2018,41230872,692.038147,29.7964058,1513,1510,1088,1510,1088,1940,1514,1514,-0.046951294,-0.187797546,1.00000012,-0.469482422,-0.500000119,0.5,-318.256439,-14629.8008,0,,6.47436142,0,0,0,0,,-7.94361973,0,0,0,0,-83.4540024,-0.877754986,0,0,0,-0.210689753,0.727837324,-9.6629982,-0.001064224,-0.037247852,0.004256897,60.9609413,35.3718758,19.4250011,0.699999988,1.95000005,1.95000005,0.699999988,0,0,0,0,10000,0,0,0,0.100000001,0.100000001,0.100000001,0.100000001,0,30
Fri Jun 29 20:29:52 2018,41240876,692.038147,29.7964058,1513,1510,1088,1510,1088,1940,1514,1514,-0.046951294,-0.187797546,1.00000012,-0.469482422,-0.500000119,0.5,-238.567825,-14390.5566,0,,6.14407349,0,0,0,0,,-7.92088461,0,0,0,0,-80.3212357,-0.862230241,0,0,0,-0.158017308,0.67037648,-9.50498104,0.002128449,-0.037247852,0.002128449,60.9609413,35.3718758,19.4250011,0.699999988,1.95000005,1.95000005,0.699999988,0,0,0,0,10000,0,0,0,0.100000001,0.100000001,0.100000001,0.100000001,0,30
Fri Jun 29 20:29:52 2018,41250880,692.038147,29.7964058,1513,1510,1088,1510,1088,1940,1514,1514,-0.046951294,-0.187797546,1.00000012,-0.469482422,-0.500000119,0.5,-332.813171,-14492.0586,0,,5.83523226,0,0,0,0,,-7.89588165,0,0,0,0,-77.4072342,-0.850406468,0,0,0,-0.220266551,0.67037648,-9.57201862,0.004256897,-0.036183626,0.003192673,60.9609413,35.3718758,19.4250011,0.699999988,1.95000005,1.95000005,0.699999988,0,779,0,0,-55.76,14087492.7,12300105.4,0,0.100000001,0.100000001,0.100000001,0.100000001,0,30
Fri Jun 29 20:29:52 2018,41260887,692.038147,29.7964058,1513,1510,1088,1510,1088,1940,1514,1514,-0.046951294,-0.187797546,1.00000012,-0.469482422,-0.500000119,0.5,-456.042755,-14564.5625,0,,5.54674578,0,0,0,0,,-7.86861563,0,0,0,0,-74.6916504,-0.836705446,0,0,0,-0.301669419,0.684741676,-9.61990261,0.002128449,-0.036183626,0.001064224,60.9609413,35.3718758,19.4250011,0.699999988,1.95000005,1.95000005,0.699999988,0,779,0,0,-55.76,14087492.7,12300105.4,0,0.100000001,0.100000001,0.100000001,0.100000001,0,30
Fri Jun 29 20:29:52 2018,41270892,693.793335,29.7962761,1513,1510,1088,1510,1088,1940,1514,1514,-0.046951294,-0.187797546,1.00000012,-0.469482422,-0.500000119,0.5,-397.988129,-14731.3008,0,,5.27845812,0,0,0,0,,-7.83964157,0,0,0,0,-72.1753693,-0.824790597,0,0,0,-0.263362169,0.74220252,-9.73003578,-0.002128449,-0.034055177,0,60.9609413,35.3718758,19.4250011,0.699999988,1.95000005,1.95000005,0.699999988,0,779,0,0,-55.76,14087492.7,12300105.4,0,0.100000001,0.100000001,0.100000001,0.100000001,0,30
Fri Jun 29 20:29:52 2018,41280898,693.793335,29.7962761,1513,1510,1088,1510,1088,1940,1514,1514,-0.046951294,-0.187797546,1.00000012,-0.469482422,-0.500000119,0.5,-376.296661,-14600.8057,0,,5.02750921,0,0,0,0,,-7.80861998,0,0,0,0,-69.8416824,-0.817333519,0,0,0,-0.248996973,0.684741676,-9.6438446,0.001064224,-0.034055177,0.003192673,60.9609413,35.3718758,19.4250011,0.699999988,1.95000005,1.95000005,0.699999988,0,779,0,0,-55.76,14087492.7,12300105.4,0,0.100000001,0.100000001,0.100000001,0.100000001,0,30
Fri Jun 29 20:29:52 2018,41290905,693.793335,29.7962761,1513,1510,1088,1510,1088,1940,1514,1514,-0.046951294,-0.187797546,1.00000012,-0.469482422,-0.500000119,0.5,-397.978546,-14455.8145,0,,4.794034,0,0,0,0,,-7.77638388,0,0,0,0,-67.6768265,-0.806039989,0,0,0,-0.263362169,0.751779318,-9.54807663,0.003192673,-0.030862505,0.001064224,60.9609413,35.3718758,19.4250011,0.699999988,1.95000005,1.95000005,0.699999988,0,779,0,0,-55.76,14087492.7,12300105.4,0,0.100000001,0.100000001,0.100000001,0.100000001,0,30
Fri Jun 29 20:29:52 2018,41300911,693.793335,29.7962761,1513,1510,1088,1510,1088,1940,1514,1514,-0.046951294,-0.187797546,1.00000012,-0.469482422,-0.500000119,0.5,-412.492218,-14608.0576,0,,4.57789373,0,0,0,0,,-7.74099731,0,0,0,0,-65.6766663,-0.794551551,0,0,0,-0.272938997,0.737414122,-9.648633,0.002128449,-0.038312074,-0.002128449,60.9609413,35.3718758,19.4250011,0.699999988,1.95000005,1.95000005,0.699999988,0,779,0,0,-55.76,14087492.7,12300105.4,0,0.100000001,0.100000001,0.100000001,0.100000001,0,30
Fri Jun 29 20:29:52 2018,41310912,693.793335,29.7962761,1513,1510,1088,1510,1088,1940,1514,1514,-0.046951294,-0.187797546,1.00000012,-0.469482422,-0.500000119,0.5,-231.246368,-14528.2998,0,,4.3778677,0,0,0,0,,-7.70561647,0,0,0,0,-63.8291779,-0.786475182,0,0,0,-0.153228909,0.74220252,-9.59596062,-0.001064224,-0.036183626,-0.002128449,60.9609413,35.3718758,19.4250011,0.699999988,1.95000005,1.95000005,0.699999988,0,779,0,0,-55.76,14087492.7,12300105.4,0,0.100000001,0.100000001,0.100000001,0.100000001,0,30
Fri Jun 29 20:29:52 2018,41320919,693.793335,29.7962761,1513,1510,1088,1510,1088,1940,1514,1514,-0.046951294,-0.187797546,1.00000012,-0.469482422,-0.500000119,0.5,-405.247375,-14506.5625,0,,4.1922698,0,0,0,0,,-7.66902494,0,0,0,0,-62.1299667,-0.779962003,0,0,0,-0.268150598,0.732625723,-9.58159542,0.002128449,-0.032990951,-0.001064224,60.9609413,35.3718758,19.4250011,0.699999988,1.95000005,1.95000005,0.699999988,0,779,0,0,-55.76,14087492.7,12300105.4,0,0.100000001,0.100000001,0.100000001,0.100000001,0,30
Fri Jun 29 20:29:52 2018,41330923,693.437134,29.8068466,1513,1510,1088,1510,1088,1940,1514,1514,-0.046951294,-0.187797546,1.00000012,-0.469482422,-0.500000119,0.5,-354.466339,-14368.8154,0,,4.01852655,0,0,0,0,,-7.63041687,0,0,0,0,-60.5407677,-0.775759459,0,0,0,-0.234631762,0.766144514,-9.49061584,0.003192673,-0.036183626,0.002128449,60.9609413,35.3718758,19.4250011,0.699999988,1.95000005,1.95000005,0.699999988,0,779,0,0,-55.76,14087492.7,12300105.4,0,0.100000001,0.100000001,0.100000001,0.100000001,0,30
Fri Jun 29 20:29:52 2018,41340929,693.437134,29.8068466,1513,1510,1088,1510,1088,1940,1514,1514,-0.046951294,-0.187797546,1.00000012,-0.469482422,-0.500000119,0.5,-318.198975,-14767.5439,0,,3.85861421,0,0,0,0,,-7.5908885,0,0,0,0,-59.0737114,-0.768431246,0,0,0,-0.210689753,0.785298169,-9.75397778,-0.003192673,-0.038312074,0.001064224,60.9609413,35.3718758,19.4250011,0.699999988,1.95000005,1.95000005,0.699999988,0,779,0,0,-55.76,14087492.7,12300105.4,0,0.100000001,0.100000001,0.100000001,0.100000001,0,30
Fri Jun 29 20:29:52 2018,41350936,693.437134,29.8068466,1513,1510,1088,1510,1088,1940,1514,1514,-0.046951294,-0.187797546,1.00000012,-0.469482422,-0.500000119,0.5,-332.741364,-14426.8115,0,,3.70871496,0,0,0,0,,-7.55187273,0,0,0,0,-57.7168465,-0.76249969,0,0,0,-0.220266551,0.74220252,-9.52892303,0,-0.030862505,0.001064224,60.9609413,35.3718758,19.4250011,0.699999988,1.95000005,1.95000005,0.699999988,0,779,0,0,-55.76,14087492.7,12300105.4,0,0.100000001,0.100000001,0.100000001,0.100000001,0,30
Fri Jun 29 20:29:52 2018,41361375,693.437134,29.8068466,1513,1510,1088,1510,1088,1940,1514,1514,-0.046951294,-0.187797546,1.00000012,-0.469482422,-0.500000119,0.5,-347.250214,-14296.3184,0,,3.56184697,0,0,0,0,,-7.50823879,0,0,0,0,-56.3913383,-0.758535028,0,0,0,-0.229843363,0.732625723,-9.4427309,0.003192673,-0.037247852,0.003192673,60.9609413,35.3718758,19.4250011,0.699999988,1.95000005,1.95000005,0.699999988,0,779,0,0,-55.76,14087492.7,12300105.4,0,0.100000001,0.100000001,0.100000001,0.100000001,0,0
Fri Jun 29 20:29:52 2018,41371376,692.52478,29.8066502,1513,1510,1088,1510,1088,1940,1514,1514,-0.046951294,-0.187797546,1.00000012,-0.469482422,-0.500000119,0.5,-390.71933,-14608.0566,0,,3.43223357,0,0,0,0,,-7.4674058,0,0,0,0,-55.221386,-0.75250566,0,0,0,-0.258573771,0.761356115,-9.648633,0.002128449,-0.030862505,0.002128449,60.9609413,35.3718758,19.4250011,0.699999988,1.95000005,1.95000005,0.699999988,0,779,0,0,-55.76,14087492.7,12300105.4,0,0.100000001,0.100000001,0.100000001,0.100000001,0,0
Fri Jun 29 20:29:52 2018,41381377,692.52478,29.8066502,1513,1510,1088,1510,1088,1940,1514,1514,-0.046951294,-0.187797546,1.00000012,-0.469482422,-0.500000119,0.5,-289.272217,-14441.3086,0,,3.31055927,0,0,0,0,,-7.42409372,0,0,0,0,-54.1260643,-0.745887637,0,0,0,-0.191536129,0.713472068,-9.53849983,0,-0.036183626,0,60.9609413,35.3718758,19.4250011,0.699999988,1.95000005,1.95000005,0.699999988,0,779,0,0,-55.76,14087492.7,12300105.4,0,0.100000001,0.100000001,0.100000001,0.100000001,0,0
Fri Jun 29 20:29:52 2018,41391378,692.52478,29.8066502,1513,1510,1088,1510,1088,1940,1514,1514,-0.046951294,-0.187797546,1.00000012,-0.469482422,-0.500000119,0.5,-390.757629,-14600.8066,0,,3.19638491,0,0,0,0,,-7.38136005,0,0,0,0,-53.1101303,-0.742361367,0,0,0,-0.258573771,0.723048925,-9.6438446,0.003192673,-0.032990951,0.001064224,60.9609413,35.3718758,19.4250011,0.699999988,1.95000005,1.95000005,0.699999988,0,779,0,0,-55.76,14087492.7,12300105.4,0,0.100000001,0.100000001,0.100000001,0.100000001,0,0
Fri Jun 29 20:29:52 2018,41401381,692.52478,29.8066502,1513,1510,1088,1510,1088,1940,1514,1514,-0.046951294,-0.187797546,1.00000012,-0.469482422,-0.500000119,0.5,-347.322052,-14455.8115,0,,3.0901196,0,0,0,0,,-7.33734179,0,0,0,0,-52.1591797,-0.738204241,0,0,0,-0.229843363,0.660799682,-9.54807663,-0.001064224,-0.034055177,0.001064224,60.9609413,35.3718758,19.4250011,0.699999988,1.95000005,1.95000005,0.699999988,0,779,0,0,-55.76,14087492.7,12300105.4,0,0.100000001,0.100000001,0.100000001,0.100000001,0,0
Fri Jun 29 20:29:52 2018,41411383,692.915771,29.8051605,1513,1510,1088,1510,1088,1940,1514,1514,-0.046951294,-0.187797546,1.00000012,-0.469482422,-0.500000119,0.5,-340.010132,-14506.5576,0,,2.98946619,0,0,0,0,,-7.29300594,0,0,0,0,-51.2692528,-0.733399034,0,0,0,-0.22505495,0.723048925,-9.58159542,0,-0.034055177,0,60.9609413,35.3718758,19.4250011,0.699999988,1.95000005,1.95000005,0.699999988,0,779,0,0,-55.76,14087492.7,12300105.4,0,0.100000001,0.100000001,0.100000001,0.100000001,0,0
Fri Jun 29 20:29:52 2018,41421392,692.915771,29.8051605,1513,1510,1088,1510,1088,1940,1514,1514,-0.046951294,-0.187797546,1.00000012,-0.469482422,-0.500000119,0.5,-354.58606,-14434.0625,0,,2.89504766,0,0,0,0,,-7.24744558,0,0,0,0,-50.4374352,-0.729762673,0,0,0,-0.234631762,0.646434426,-9.53371143,0,-0.0393763,0,60.9609413,35.3718758,19.4250011,0.699999988,1.95000005,1.95000005,0.699999988,0,779,0,0,-55.76,14087492.7,12300105.4,0,0.100000001,0.100000001,0.100000001,0.100000001,0,0
Fri Jun 29 20:29:52 2018,41431397,692.915771,29.8051605,1513,1510,1088,1510,1088,1940,1514,1514,-0.046951294,-0.187797546,1.00000012,-0.469482422,-0.500000119,0.5,-303.75235,-14564.5527,0,,2.80453825,0,0,0,0,,-7.20274496,0,0,0,0,-49.6461372,-0.729963124,0,0,0,-0.201112941,0.732625723,-9.61990261,0.003192673,-0.036183626,0.004256897,60.9609413,35.3718758,19.4250011,0.699999988,1.95000005,1.95000005,0.699999988,0,779,0,0,-55.76,14087492.7,12300105.4,0,0.100000001,0.100000001,0.100000001,0.100000001,0,0
Fri Jun 29 20:29:52 2018,41441402,692.915771,29.8051605,1513,1510,1088,1510,1088,1940,1514,1514,-0.046951294,-0.187797546,1.00000012,-0.469482422,-0.500000119,0.5,-310.94931,-14680.5469,0,,2.72042322,0,0,0,0,,-7.15678024,0,0,0,0,-48.9072685,-0.726733148,0,0,0,-0.20590134,0.785298169,-9.69651699,0,-0.038312074,0.004256897,60.9609413,35.3718758,19.4250011,0.699999988,1.95000005,1.95000005,0.699999988,0,779,0,0,-55.76,14087492.7,12300105.4,0,0.100000001,0.100000001,0.100000001,0.100000001,0,0
Fri Jun 29 20:29:52 2018,41451407,692.915771,29.8051605,1513,1510,1088,1510,1088,1940,1514,1514,-0.046951294,-0.187797546,1.00000012,-0.469482422,-0.500000119,0.5,-419.794525,-14767.5508,0,,2.64027452,0,0,0,0,,-7.11171055,0,0,0,0,-48.2100563,-0.72094059,0,0,0,-0.277727395,0.684741676,-9.75397778,0,-0.030862505,0.001064224,60.9609413,35.3718758,19.4250011,0.699999988,1.95000005,1.91933393,0.699999988,0,779,0,0,-55.76,14087492.7,12300105.4,0,0.100000001,0.100000001,0.100000001,0.100000001,0,0
Fri Jun 29 20:29:52 2018,41461409,692.915771,29.8051605,1513,1510,1088,1510,1088,1940,1514,1514,-0.046951294,-0.187797546,1.00000012,-0.469482422,-0.500000119,0.5,-252.957001,-14477.5537,0,,2.56382513,0,0,0,0,,-7.06451893,0,0,0,0,-47.5527115,-0.718981862,0,0,0,-0.16759412,0.78050977,-9.56244183,0.003192673,-0.036183626,0.002128449,60.9609413,35.3718758,19.4250011,0.699999988,1.95000005,1.84484327,0.699999988,0,779,0,0,-55.76,14087492.7,12300105.4,0,0.100000001,0.100000001,0.100000001,0.100000001,0,0
Fri Jun 29 20:29:52 2018,41471420,693.05481,29.8186474,1513,1510,1088,1510,1088,1940,1514,1514,-0.046951294,-0.187797546,1.00000012,-0.469482422,-0.500000119,0.5,-340.019714,-14470.3096,0,,2.49202132,0,0,0,0,,-7.01768875,0,0,0,0,-46.9351158,-0.715367138,0,0,0,-0.22505495,0.713472068,-9.55765343,0.002128449,-0.036183626,0.001064224,60.0644569,34.469532,19.5984383,0.699999988,1.95000005,1.77665424,0.699999988,0,779,0,0,-55.76,14087492.7,12300105.4,0,0.100000001,0.100000001,0.100000001,0.100000001,0,0
Fri Jun 29 20:29:52 2018,41481421,693.05481,29.8186474,1513,1510,1088,1510,1088,1940,1514,1514,-0.046951294,-0.187797546,1.00000012,-0.469482422,-0.500000119,0.5,-354.533386,-14673.3008,0,,2.42487574,0,0,0,0,,-6.97046947,0,0,0,0,-46.3614082,-0.711029351,0,0,0,-0.234631762,0.699106872,-9.69172859,0.001064224,-0.037247852,-0.001064224,60.0644569,34.469532,19.5984383,0.699999988,1.95000005,1.71384645,0.699999988,0,779,0,0,-55.76,14087492.7,12300105.4,0,0.100000001,0.100000001,0.100000001,0.100000001,0,0
Fri Jun 29 20:29:52 2018,41491428,693.05481,29.8186474,1513,1510,1088,1510,1088,1940,1514,1514,-0.046951294,-0.187797546,1.00000012,-0.469482422,-0.500000119,0.5,-318.194183,-14557.3047,0,,2.35980129,0,0,0,0,,-6.92314243,0,0,0,0,-45.8113136,-0.709539473,0,0,0,-0.210689753,0.790086567,-9.61511421,0.003192673,-0.037247852,0,60.0644569,34.469532,19.5984383,0.699999988,1.95000005,1.65026188,0.699999988,0,779,0,0,-55.76,14087492.7,12300105.4,0,0.100000001,0.100000001,0.100000001,0.100000001,0,0
Fri Jun 29 20:29:52 2018,41501432,693.05481,29.8186474,1513,1510,1088,1510,1088,1940,1514,1514,-0.046951294,-0.187797546,1.00000012,-0.469482422,-0.500000119,0.5,-332.717407,-14463.0605,0,,2.29916644,0,0,0,0,,-6.87555218,0,0,0,0,-45.2898026,-0.708174586,0,0,0,-0.220266551,0.766144514,-9.55286503,-0.005321121,-0.037247852,0.001064224,60.0644569,34.469532,19.5984383,0.699999988,1.95000005,1.59099185,0.699999988,0,779,0,0,-55.76,14087492.7,12300105.4,0,0.100000001,0.100000001,0.100000001,0.100000001,0,0
Fri Jun 29 20:29:52 2018,41511439,692.724609,29.8152103,1513,1510,1088,1510,1088,1940,1514,1514,-0.046951294,-0.187797546,1.00000012,-0.469482422,-0.500000119,0.5,-441.43808,-14615.3096,0,,2.24027681,0,0,0,0,,-6.82812452,0,0,0,0,-44.8004074,-0.705120325,0,0,0,-0.292092592,0.790086567,-9.6534214,-0.002128449,-0.034055177,0,60.0644569,34.469532,19.5984383,0.699999988,1.95000005,1.53515649,0.699999988,0,779,0,0,-55.76,14087492.7,12300105.4,0,0.100000001,0.100000001,0.100000001,0.100000001,0,0
Fri Jun 29 20:29:52 2018,41521443,692.724609,29.8152103,1513,1510,1088,1510,1088,1940,1514,1514,-0.046951294,-0.187797546,1.00000012,-0.469482422,-0.500000119,0.5,-412.501801,-14506.5625,0,,2.18400121,0,0,0,0,,-6.77967739,0,0,0,0,-44.3302231,-0.704894662,0,0,0,-0.272938997,0.727837324,-9.58159542,-0.003192673,-0.036183626,0.002128449,60.0644569,34.469532,19.5984383,0.699999988,1.95000005,1.47910655,0.699999988,0,779,0,0,-55.76,14087492.7,12300105.4,0,0.100000001,0.100000001,0.100000001,0.100000001,0,0
Fri Jun 29 20:29:52 2018,41531450,692.724609,29.8152103,1513,1510,1088,1510,1088,1940,1514,1514,-0.046951294,-0.187797546,1.00000012,-0.469482422,-0.500000119,0.5,-325.419891,-14767.5439,0,,2.12989378,0,0,0,0,,-6.73177671,0,0,0,0,-43.8871803,-0.702042997,0,0,0,-0.215478152,0.814028561,-9.75397778,0,-0.034055177,0.001064224,60.0644569,34.469532,19.5984383,0.699999988,1.95000005,1.42785072,0.699999988,0,779,0,0,-55.76,14087492.7,12300105.4,0,0.100000001,0.100000001,0.100000001,0.100000001,0,0
Fri Jun 29 20:29:52 2018,41541453,692.724609,29.8152103,1513,1510,1088,1510,1088,1940,1514,1514,-0.046951294,-0.187797546,1.00000012,-0.469482422,-0.500000119,0.5,-347.259796,-14521.0586,0,,2.07854152,0,0,0,0,,-6.68302345,0,0,0,0,-43.4653969,-0.700199187,0,0,0,-0.229843363,0.723048925,-9.59117222,-0.001064224,-0.036183626,0.001064224,60.0644569,34.469532,19.5984383,0.699999988,1.95000005,1.37834239,0.699999988,0,779,0,0,-55.76,14087492.7,12300105.4,0,0.100000001,0.100000001,0.100000001,0.100000001,0,0
Fri Jun 29 20:29:52 2018,41551457,692.724609,29.8152103,1513,1510,1088,1510,1088,1940,1514,1514,-0.046951294,-0.187797546,1.00000012,-0.469482422,-0.500000119,0.5,-318.333069,-14535.5557,0,,2.03013134,0,0,0,0,,-6.63371277,0,0,0,0,-43.0733109,-0.700314939,0,0,0,-0.210689753,0.651222825,-9.60074902,-0.001064224,-0.040440522,0.003192673,60.0644569,34.469532,19.5984383,0.699999988,1.95000005,1.32981634,0.699999988,0,779,0,0,-55.76,14087492.7,12300105.4,0,0.100000001,0.100000001,0.100000001,0.100000001,0,0
Fri Jun 29 20:29:52 2018,41561466,692.724609,29.8152103,1513,1510,1088,1510,1088,1940,1514,1514,-0.046951294,-0.187797546,1.00000012,-0.469482422,-0.500000119,0.5,-303.709259,-14803.791,0,,1.98355377,0,0,0,0,,-6.58620214,0,0,0,0,-42.6986618,-0.700506926,0,0,0,-0.201112941,0.775721312,-9.77791977,-0.001064224,-0.031926729,0.005321121,60.0644569,34.469532,19.5984383,0.699999988,1.95000005,1.28304684,0.699999988,0,779,0,0,-55.76,14087492.7,12300105.4,0,0.100000001,0.100000001,0.100000001,0.100000001,0,0
